id,name,city_id,City name,subarea_id,lat,lng,"Locality,city name"
1489,kaushambi,1273294,Delhi,60,28.64241,77.31874,"kaushambi,Delhi"
1446,Patparganj,1273294,Delhi,59,28.61999,77.29236,"Patparganj,Delhi"
1447,Shahdhara,1273294,Delhi,59,28.68884,77.26748,"Shahdhara,Delhi"
1448,Laxmi Nagar,1273294,Delhi,59,28.63674,77.27481,"Laxmi Nagar,Delhi"
1449,Mayur Vihar,1273294,Delhi,59,28.61462,77.31216,"Mayur Vihar,Delhi"
1450,Preet Vihar,1273294,Delhi,59,28.63592,77.28521,"Preet Vihar,Delhi"
1451,Vivek Vihar,1273294,Delhi,59,28.67125,77.31765,"Vivek Vihar,Delhi"
1490,Raj Nagar,1273294,Delhi,60,28.57948,77.08024,"Raj Nagar,Delhi"
1453,Rama Road,1273294,Delhi,10,28.66034,77.15136,"Rama Road,Delhi"
1454,Hari nagar,1273294,Delhi,10,28.62486,77.11087,"Hari nagar,Delhi"
1455,Mayapuri,1273294,Delhi,10,28.62937,77.12669,"Mayapuri,Delhi"
1456,Subash Nagar,1273294,Delhi,10,28.63391,77.12098,"Subash Nagar,Delhi"
1457,Uttam nagar,1273294,Delhi,10,28.62127,77.06133,"Uttam nagar,Delhi"
1458,Vikas Puri,1273294,Delhi,10,28.63875,77.0738,"Vikas Puri,Delhi"
1459,Rohini,1273294,Delhi,10,28.74947,77.05653,"Rohini,Delhi"
1460,Mundka,1273294,Delhi,10,28.68231,77.03494,"Mundka,Delhi"
1461,Punjabi Bagh,1273294,Delhi,10,28.67375,77.12734,"Punjabi Bagh,Delhi"
1462,Patel Nagar,1273294,Delhi,10,28.65444,77.16888,"Patel Nagar,Delhi"
1463,Dwarka,1273294,Delhi,10,28.59214,77.04605,"Dwarka,Delhi"
1491,Kavi Nagar,1273294,Delhi,60,28.66503,77.42699,"Kavi Nagar,Delhi"
1492,Sector 16,1273294,Delhi,62,28.57835,77.31562,"Sector 16,Delhi"
1493,Noida City center,1273294,Delhi,62,28.59051,77.36741,"Noida City center,Delhi"
1494,Sector 18,1273294,Delhi,62,19.07094,73.00351,"Sector 18,Delhi"
1495,Sector 51,1273294,Delhi,62,28.89007,77.08667,"Sector 51,Delhi"
1496,Sector 5,1273294,Delhi,62,28.71615,77.09977,"Sector 5,Delhi"
1497,Sector 6,1273294,Delhi,62,28.52836,77.22112,"Sector 6,Delhi"
1498,Sector 26,1273294,Delhi,62,28.74307,77.08808,"Sector 26,Delhi"
1419,Mahim (East),1275339,Mumbai,2,19.03868,72.84903,"Mahim (East),Mumbai"
1411,Masjid Bunder,1275339,Mumbai,2,18.95196,72.83616,"Masjid Bunder,Mumbai"
1412,Bhandup (East),1275339,Mumbai,3,19.1465,72.94598,"Bhandup (East),Mumbai"
1413,Hiranandani Gardens - Powai,1275339,Mumbai,3,19.11538,72.90914,"Hiranandani Gardens - Powai,Mumbai"
1414,Kanjurmarg (East),1275339,Mumbai,3,19.13169,72.93519,"Kanjurmarg (East),Mumbai"
1415,Kanjurmarg (West),1275339,Mumbai,3,19.13269,72.92543,"Kanjurmarg (West),Mumbai"
1416,Mulund Colony,1275339,Mumbai,3,19.16887,72.93498,"Mulund Colony,Mumbai"
1417,Wadala (East),1275339,Mumbai,3,19.02905,72.8798,"Wadala (East),Mumbai"
1418,Bandra Kurla Complex,1275339,Mumbai,4,19.06879,72.87027,"Bandra Kurla Complex,Mumbai"
1420,Mira Road (West),1275339,Mumbai,4,19.28064,72.84859,"Mira Road (West),Mumbai"
158,Airoli,1275339,Mumbai,53,19.15794,72.99348,"Airoli,Mumbai"
1421,Kopar Khairane,1275339,Mumbai,53,19.10277,73.009,"Kopar Khairane,Mumbai"
1422,Kharghar,1275339,Mumbai,53,19.04732,73.06991,"Kharghar,Mumbai"
1423,Turbhe,1275339,Mumbai,53,19.07268,73.01987,"Turbhe,Mumbai"
1424,Badlapur (West),1275339,Mumbai,54,19.07598,72.87766,"Badlapur (West),Mumbai"
1669,Pune-Bangalore Highway,1259229,Pune,33,18.471,73.85717,"Pune-Bangalore Highway,Pune"
1670,Salunke Vihar,1259229,Pune,33,18.47998,73.90438,"Salunke Vihar,Pune"
1671,Fatima Nagar,1259229,Pune,33,18.50421,73.90144,"Fatima Nagar,Pune"
1672,Shankarsheth Road,1259229,Pune,33,18.50127,73.86807,"Shankarsheth Road,Pune"
1673,Salisbary Park,1259229,Pune,33,18.49261,73.87572,"Salisbary Park,Pune"
1674,Bibwewadi,1259229,Pune,33,18.4718,73.86709,"Bibwewadi,Pune"
1675,NIBM,1259229,Pune,33,18.47087,73.90004,"NIBM,Pune"
1676,NIBM Annexe,1259229,Pune,33,18.46297,73.91757,"NIBM Annexe,Pune"
1677,Undri,1259229,Pune,33,18.45667,73.90953,"Undri,Pune"
1678,Mukundnagar,1259229,Pune,33,18.49574,73.86113,"Mukundnagar,Pune"
1679,Sinhagad Road,1259229,Pune,33,18.46609,73.8168,"Sinhagad Road,Pune"
1680,Ambegaon,1259229,Pune,33,19.11323,73.73268,"Ambegaon,Pune"
1657,Wagholi,1259229,Pune,72,18.57931,73.98235,"Wagholi,Pune"
1658,Vishtantwadi,1259229,Pune,72,18.57261,73.87821,"Vishtantwadi,Pune"
1659,M. G Road,1259229,Pune,72,18.62767,73.79694,"M. G Road,Pune"
1660,Alandi,1259229,Pune,72,18.67255,73.88936,"Alandi,Pune"
1661,Airport Road,1259229,Pune,72,18.56156,73.89222,"Airport Road,Pune"
1662,Dhanori,1259229,Pune,72,18.5835,73.88649,"Dhanori,Pune"
1663,Kalyani Nagar,1259229,Pune,72,18.54633,73.90331,"Kalyani Nagar,Pune"
1664,Manjri,1259229,Pune,72,18.52345,73.98538,"Manjri,Pune"
1665,Viman Nagar,1259229,Pune,72,18.56793,73.91432,"Viman Nagar,Pune"
1666,Mundhwa Road,1259229,Pune,72,18.53195,73.93251,"Mundhwa Road,Pune"
1667,Kharadi,1259229,Pune,72,18.55145,73.93479,"Kharadi,Pune"
1428,GT Karnal Road,1273294,Delhi,6,28.69283,77.19023,"GT Karnal Road,Delhi"
1429,GTB Nagar,1273294,Delhi,6,28.69665,77.20576,"GTB Nagar,Delhi"
1430,Sakthi Nagar,1273294,Delhi,6,28.68001,77.19764,"Sakthi Nagar,Delhi"
1431,Wazir Pur,1273294,Delhi,6,28.70022,77.16379,"Wazir Pur,Delhi"
1432,Udhyog Vihar,1273294,Delhi,61,28.70894,76.90236,"Udhyog Vihar,Delhi"
1433,Sikanderpur,1273294,Delhi,61,28.47942,77.10681,"Sikanderpur,Delhi"
1434,Golf Course Road,1273294,Delhi,61,28.45395,77.09805,"Golf Course Road,Delhi"
1435,Sushant Lok,1273294,Delhi,61,28.46344,77.07676,"Sushant Lok,Delhi"
1436,Ambience Island,1273294,Delhi,61,28.50349,77.09602,"Ambience Island,Delhi"
1437,Cyber City,1273294,Delhi,61,28.4936,77.08833,"Cyber City,Delhi"
1438,MG Road,1273294,Delhi,61,28.69956,77.22652,"MG Road,Delhi"
1439,Sohna Road,1273294,Delhi,61,28.25601,77.06841,"Sohna Road,Delhi"
1440,Leisure Valley,1273294,Delhi,61,28.43802,77.28613,"Leisure Valley,Delhi"
1441,Old Gurgaon,1273294,Delhi,61,28.47562,77.05451,"Old Gurgaon,Delhi"
1442,Palam Vihar,1273294,Delhi,61,28.51048,77.0152,"Palam Vihar,Delhi"
1443,DLF City,1273294,Delhi,61,28.48863,77.07315,"DLF City,Delhi"
1444,M.G Road,1273294,Delhi,61,28.57107,77.26389,"M.G Road,Delhi"
1681,Aundh,1259229,Pune,34,18.55801,73.80752,"Aundh,Pune"
1445,Ghazipur,1273294,Delhi,59,28.62866,77.32078,"Ghazipur,Delhi"
1464,Paschim Vihar,1273294,Delhi,10,28.66867,77.10194,"Paschim Vihar,Delhi"
1465,Pitampura,1273294,Delhi,10,28.69536,77.15355,"Pitampura,Delhi"
1452,Nariana,1273294,Delhi,10,28.63214,77.13885,"Nariana,Delhi"
1466,Kirti Nagar,1273294,Delhi,10,28.65041,77.14443,"Kirti Nagar,Delhi"
1467,Peeragarhi,1273294,Delhi,10,28.67964,77.09471,"Peeragarhi,Delhi"
1468,NH-8,1273294,Delhi,9,28.57387,77.14038,"NH-8,Delhi"
1469,Rajokri,1273294,Delhi,9,28.51253,77.11098,"Rajokri,Delhi"
1470,Bijwasan,1273294,Delhi,9,28.53495,77.05575,"Bijwasan,Delhi"
1471,Mahipalpur,1273294,Delhi,9,28.54487,77.12813,"Mahipalpur,Delhi"
1472,Pushpanjali,1273294,Delhi,9,28.69417,77.10762,"Pushpanjali,Delhi"
1473,Kapeshera,1273294,Delhi,9,28.52559,77.07962,"Kapeshera,Delhi"
1474,Saket,1273294,Delhi,9,28.52458,77.20662,"Saket,Delhi"
1475,Vasant Kunj,1273294,Delhi,9,28.52676,77.13582,"Vasant Kunj,Delhi"
1476,Kalkaji,1273294,Delhi,9,28.53742,77.25973,"Kalkaji,Delhi"
1477,Friends Colony,1273294,Delhi,9,28.56685,77.26639,"Friends Colony,Delhi"
1478,Chattarpur,1273294,Delhi,9,28.50371,77.17639,"Chattarpur,Delhi"
1479,East of Kailash,1273294,Delhi,9,28.55835,77.25308,"East of Kailash,Delhi"
1480,G.K - 1 & 2,1273294,Delhi,9,28.55324,77.23034,"G.K - 1 & 2,Delhi"
1481,Safdarganj,1273294,Delhi,9,28.5957,77.20769,"Safdarganj,Delhi"
1482,South Ex,1273294,Delhi,9,28.57329,77.22194,"South Ex,Delhi"
1682,Ravet,1259229,Pune,34,18.65225,73.7419,"Ravet,Pune"
1483,Lodhi Road,1273294,Delhi,7,28.59095,77.22794,"Lodhi Road,Delhi"
1484,Panchkuian Road,1273294,Delhi,7,28.6386,77.20989,"Panchkuian Road,Delhi"
1485,Vaishali,1273294,Delhi,60,28.70215,77.13902,"Vaishali,Delhi"
1486,Vasundhara,1273294,Delhi,60,28.66363,77.36977,"Vasundhara,Delhi"
1487,Shahibabad,1273294,Delhi,60,28.67543,77.3449,"Shahibabad,Delhi"
1488,Mohan Nagar,1273294,Delhi,60,18.64421,73.79121,"Mohan Nagar,Delhi"
1683,Pimple Saudagar,1259229,Pune,34,18.59347,73.79291,"Pimple Saudagar,Pune"
1684,Pimple Gurav,1259229,Pune,34,18.58947,73.81196,"Pimple Gurav,Pune"
1685,Pimple Nilakh,1259229,Pune,34,18.5789,73.79191,"Pimple Nilakh,Pune"
1686,Balewadi,1259229,Pune,34,18.57889,73.77068,"Balewadi,Pune"
1687,N.C.L,1259229,Pune,34,18.52043,73.85674,"N.C.L,Pune"
1688,Range Hills,1259229,Pune,34,18.55422,73.83897,"Range Hills,Pune"
1689,Bhosale Nagar,1259229,Pune,34,18.54388,73.83424,"Bhosale Nagar,Pune"
1690,Ganeshkhind Road,1259229,Pune,34,18.53442,73.83958,"Ganeshkhind Road,Pune"
1691,Model Colony,1259229,Pune,34,18.53249,73.8375,"Model Colony,Pune"
1692,Senapati Bapat Road,1259229,Pune,34,18.53108,73.82996,"Senapati Bapat Road,Pune"
1693,Pashan Sus Road,1259229,Pune,34,18.54267,73.78967,"Pashan Sus Road,Pune"
1694,Wakdewadi,1259229,Pune,32,18.54213,73.84926,"Wakdewadi,Pune"
1695,Chakan,1259229,Pune,32,18.76027,73.86304,"Chakan,Pune"
1696,Moshi,1259229,Pune,32,18.67311,73.84779,"Moshi,Pune"
1697,Bopodi,1259229,Pune,32,18.56938,73.83458,"Bopodi,Pune"
1698,Talegaon,1259229,Pune,32,19.39085,73.63743,"Talegaon,Pune"
1699,Dapodi,1259229,Pune,32,18.51292,74.3998,"Dapodi,Pune"
1700,Punawale,1259229,Pune,32,18.6372,73.74578,"Punawale,Pune"
1701,Khadki,1259229,Pune,32,18.56994,73.85064,"Khadki,Pune"
1668,Lonavala,1259229,Pune,71,18.75462,73.40623,"Lonavala,Pune"
1702,JM Road,1259229,Pune,31,18.52115,73.84673,"JM Road,Pune"
1703,Prabhat Road,1259229,Pune,31,18.51401,73.83529,"Prabhat Road,Pune"
1704,Bhandarkar Road,1259229,Pune,31,18.51813,73.83637,"Bhandarkar Road,Pune"
1705,Law College Road,1259229,Pune,31,18.5143,73.82873,"Law College Road,Pune"
1706,Fergusson College Road,1259229,Pune,31,18.52357,73.84113,"Fergusson College Road,Pune"
1707,Parvati,1259229,Pune,31,18.44591,73.86657,"Parvati,Pune"
1708,Public Park,4,Bikaner,,51.50341,-0.12759,"Public Park,Bikaner"
1720,Chitrakutnagar,1253987,Udaipur,,24.61752,73.72866,"Chitrakutnagar,Udaipur"
1732, City palace complex,1253987,Udaipur,,24.576,73.69704," City palace complex,Udaipur"
1744,Bujera,1253987,Udaipur,,51.50341,-0.12759,"Bujera,Udaipur"
1615,Khara,4,Bikaner,,28.18908,73.3915,"Khara,Bikaner"
1499,Atul Kataria Chowk,1273294,Delhi,61,28.48164,77.04926,"Atul Kataria Chowk,Delhi"
1500,Huda City Centre,1273294,Delhi,61,28.6347,77.08445,"Huda City Centre,Delhi"
1501,Indrapuram,1273294,Delhi,59,28.64149,77.37139,"Indrapuram,Delhi"
1507,Karkardooma,1273294,Delhi,59,28.65295,77.30229,"Karkardooma,Delhi"
1502,Aerocity,1273294,Delhi,9,28.54964,77.12119,"Aerocity,Delhi"
1503,Surajkund,1273294,Delhi,63,28.48361,77.31583,"Surajkund,Delhi"
1504,Badhkal Lake,1273294,Delhi,63,28.41272,77.27284,"Badhkal Lake,Delhi"
1616,Shri Dungargarh,4,Bikaner,,28.2603,73.92374,"Shri Dungargarh,Bikaner"
1506,Neelam Bata Road,1273294,Delhi,63,28.38823,77.30693,"Neelam Bata Road,Delhi"
1505,Ballabgarh,1273294,Delhi,63,28.56399,77.16942,"Ballabgarh,Delhi"
1508,Tumkur Road,1277333,Bangalore,16,13.05783,77.47005,"Tumkur Road,Bangalore"
1509,Vidyaranyapura,1277333,Bangalore,16,13.08579,77.5561,"Vidyaranyapura,Bangalore"
1510,Cunningham Road,1277333,Bangalore,12,12.98871,77.59372,"Cunningham Road,Bangalore"
1511,Race Course Road,1277333,Bangalore,12,12.96155,77.61572,"Race Course Road,Bangalore"
1512,Lavelle Road,1277333,Bangalore,12,12.97123,77.59787,"Lavelle Road,Bangalore"
1513,Infantry Road,1277333,Bangalore,12,12.981,77.60219,"Infantry Road,Bangalore"
1514,Kumara Park,1277333,Bangalore,12,12.99237,77.57421,"Kumara Park,Bangalore"
1515,Majestic,1277333,Bangalore,12,12.97666,77.57126,"Majestic,Bangalore"
1516,Neelasandra,1277333,Bangalore,12,12.95784,77.60457,"Neelasandra,Bangalore"
1517,Palace Grounds,1277333,Bangalore,12,13.00424,77.59106,"Palace Grounds,Bangalore"
1518,Vasanth Nagar,1277333,Bangalore,12,12.99109,77.59203,"Vasanth Nagar,Bangalore"
1519,Wilson Garden,1277333,Bangalore,12,12.94819,77.59719,"Wilson Garden,Bangalore"
1520,Marathahalli,1277333,Bangalore,13,12.95917,77.69742,"Marathahalli,Bangalore"
1521,Kodihalli,1277333,Bangalore,13,12.96112,77.64725,"Kodihalli,Bangalore"
1522,K R Puram,1277333,Bangalore,13,13.00402,77.68778,"K R Puram,Bangalore"
1523,Thippasandra,1277333,Bangalore,13,12.87068,77.55478,"Thippasandra,Bangalore"
1524,Mathikere,1277333,Bangalore,14,13.03342,77.56398,"Mathikere,Bangalore"
1525,Nagwara,1277333,Bangalore,14,13.035,77.62354,"Nagwara,Bangalore"
1526,Peenya,1277333,Bangalore,14,13.02851,77.51968,"Peenya,Bangalore"
1527,sahakarnagar,1277333,Bangalore,14,18.47555,73.85184,"sahakarnagar,Bangalore"
1528,Yeshwanthpur,1277333,Bangalore,14,13.02797,77.54092,"Yeshwanthpur,Bangalore"
1529,Devanahalli,1277333,Bangalore,14,13.24172,77.71373,"Devanahalli,Bangalore"
1530,Kalyan Nagar,1277333,Bangalore,14,13.02801,77.63997,"Kalyan Nagar,Bangalore"
1531,Sheshadripuram,1277333,Bangalore,14,12.99353,77.57874,"Sheshadripuram,Bangalore"
1533,Kanakpura,1277333,Bangalore,15,12.94279,77.57793,"Kanakpura,Bangalore"
1534,Sarjapur Road,1277333,Bangalore,15,13.00666,77.499386,"Sarjapur Road,Bangalore"
1535,Ashok Nagar,1277333,Bangalore,15,12.97087,77.60479,"Ashok Nagar,Bangalore"
1536,Banshankari,1277333,Bangalore,15,12.92545,77.54676,"Banshankari,Bangalore"
1537,M G Road,1277333,Bangalore,15,12.97473,77.60938,"M G Road,Bangalore"
1538,Ulsoor,1277333,Bangalore,15,12.98172,77.62856,"Ulsoor,Bangalore"
1539,Residency Road,1277333,Bangalore,15,12.96948,77.60244,"Residency Road,Bangalore"
1540,RajaRajeshwari Nagar,1277333,Bangalore,15,12.92422,77.51912,"RajaRajeshwari Nagar,Bangalore"
1709,Jodhpur Bypass,4,Bikaner,,27.97388,73.33966,"Jodhpur Bypass,Bikaner"
1721,Sunderwas,1253987,Udaipur,,24.58304,73.73715,"Sunderwas,Udaipur"
1733,Paras,1253987,Udaipur,,51.50341,-0.12759,"Paras,Udaipur"
1745, Kodiyat road,1253987,Udaipur,,24.58545,73.71248," Kodiyat road,Udaipur"
1571,Gulab Bagh Road,1253987,Udaipur,,24.5753,73.6937,"Gulab Bagh Road,Udaipur"
1572,Udiapole,1253987,Udaipur,,24.57614,73.69756,"Udiapole,Udaipur"
1573,Inside Udiapole,1253987,Udaipur,,51.50341,-0.12759,"Inside Udiapole,Udaipur"
1574,City Palace Road,1253987,Udaipur,,24.57793,73.68369,"City Palace Road,Udaipur"
1575,Pratap Nagar,1253987,Udaipur,,24.59781,73.74668,"Pratap Nagar,Udaipur"
1576,Airport Road,1253987,Udaipur,,24.58925,73.74537,"Airport Road,Udaipur"
1577,Dabok,1253987,Udaipur,,24.62561,73.86595,"Dabok,Udaipur"
1578,Shikarbadi,1253987,Udaipur,,24.5426,73.67589,"Shikarbadi,Udaipur"
1579,Goverdhan Villas,1253987,Udaipur,,24.53907,73.68827,"Goverdhan Villas,Udaipur"
1580,Shilpgram Road,1253987,Udaipur,,24.6276,73.68731,"Shilpgram Road,Udaipur"
1581,Sardarpura,1253987,Udaipur,,24.59757,73.69666,"Sardarpura,Udaipur"
1582,Sukhadia Circle,1253987,Udaipur,,24.60124,73.69085,"Sukhadia Circle,Udaipur"
1583,Balicha,1253987,Udaipur,,24.51691,73.66989,"Balicha,Udaipur"
1584,Hari Dasji Ki Mangari,1253987,Udaipur,,24.57817,73.67106,"Hari Dasji Ki Mangari,Udaipur"
1585,Badi,1253987,Udaipur,,24.68574,73.59491,"Badi,Udaipur"
1586,Rani Road,1253987,Udaipur,,24.59529,73.66495,"Rani Road,Udaipur"
1587,Nathdwara Road,1253987,Udaipur,,24.60749,73.6946,"Nathdwara Road,Udaipur"
1588,Sisarma,1253987,Udaipur,,24.59529,73.66495,"Sisarma,Udaipur"
1589,Sarvaritu Villas,1253987,Udaipur,,24.57416,73.69784,"Sarvaritu Villas,Udaipur"
1590,NH-8,1269507,Jaisalmer,,26.91575,70.90834,"NH-8,Jaisalmer"
1591,Ram Kund,1269507,Jaisalmer,,26.9194,70.89672,"Ram Kund,Jaisalmer"
1592,Pokhran,1269507,Jaisalmer,,26.92054,71.91655,"Pokhran,Jaisalmer"
1593,Darbariyon Ka Gaon,1269507,Jaisalmer,,26.85446,70.94874,"Darbariyon Ka Gaon,Jaisalmer"
1594,Dabla,1269507,Jaisalmer,,26.83511,70.97251,"Dabla,Jaisalmer"
1595,Gandhi Colony,1269507,Jaisalmer,,26.91911,70.92101,"Gandhi Colony,Jaisalmer"
1596,Mohangarh,1269507,Jaisalmer,,27.35016,71.21614,"Mohangarh,Jaisalmer"
1597,Ramdevra,1269507,Jaisalmer,,27.01164,71.91939,"Ramdevra,Jaisalmer"
1598,KishanGhat,1269507,Jaisalmer,,26.92799,70.8688,"KishanGhat,Jaisalmer"
1599,Jaipur Road,4,Bikaner,,28.01867,73.36145,"Jaipur Road,Bikaner"
1600,Murlidhar Vyas Colony,4,Bikaner,,28.01319,73.27728,"Murlidhar Vyas Colony,Bikaner"
1601,Shastri Nagar,4,Bikaner,,28.00549,73.32592,"Shastri Nagar,Bikaner"
1602,Nal Road,4,Bikaner,,28.02294,73.31192,"Nal Road,Bikaner"
1603,Ganganagar Circle,4,Bikaner,,28.06918,73.34292,"Ganganagar Circle,Bikaner"
1604,Station Road,4,Bikaner,,28.0129,73.31589,"Station Road,Bikaner"
1605,Junagarh fort,4,Bikaner,,28.02191,73.3187,"Junagarh fort,Bikaner"
1606,Gajner,4,Bikaner,,27.9499,73.04643,"Gajner,Bikaner"
1607,Gangashahar Road,4,Bikaner,,28.00139,73.30845,"Gangashahar Road,Bikaner"
1608,Jawahar Nagar,4,Bikaner,,28.02277,73.29349,"Jawahar Nagar,Bikaner"
1609,Ganganagar Bypass Road,4,Bikaner,,28.07478,73.39316,"Ganganagar Bypass Road,Bikaner"
1610,Karni Nagar,4,Bikaner,,27.99661,73.33849,"Karni Nagar,Bikaner"
1611,Bandra Baas,4,Bikaner,,28.0031,73.31523,"Bandra Baas,Bikaner"
1612,Amarsinghpura,4,Bikaner,,28.03751,73.31486,"Amarsinghpura,Bikaner"
1613,M.P.Colony,4,Bikaner,,28.04249,73.28799,"M.P.Colony,Bikaner"
1614,Lunkaransar,4,Bikaner,,28.49608,73.74583,"Lunkaransar,Bikaner"
1617,Choupasni Road,1268865,Jodhpur,,26.26537,72.96466,"Choupasni Road,Jodhpur"
1618,DPS Circle,1268865,Jodhpur,,26.22623,72.95898,"DPS Circle,Jodhpur"
1619,Pal By pass Road,1268865,Jodhpur,,26.23895,73.02431,"Pal By pass Road,Jodhpur"
1620,Main Pal Road,1268865,Jodhpur,,26.23775,72.96991,"Main Pal Road,Jodhpur"
1621,Choupasni By pass circle,1268865,Jodhpur,,26.23895,73.02431,"Choupasni By pass circle,Jodhpur"
1622,Circuit House,1268865,Jodhpur,,26.28585,73.03887,"Circuit House,Jodhpur"
1623,Kaiylana Circle,1268865,Jodhpur,,26.28096,72.99038,"Kaiylana Circle,Jodhpur"
1624,Residency Road,1268865,Jodhpur,,26.26606,73.03346,"Residency Road,Jodhpur"
1625,Paota,1268865,Jodhpur,,26.29746,73.03745,"Paota,Jodhpur"
1626,Ratanada,1268865,Jodhpur,,26.27394,73.02743,"Ratanada,Jodhpur"
1627,Sardarpura,1268865,Jodhpur,,26.278,73.01109,"Sardarpura,Jodhpur"
1628,Nagori gate ship house,1268865,Jodhpur,,26.23895,73.02431,"Nagori gate ship house,Jodhpur"
1629,Paanchbatti circle,1268865,Jodhpur,,26.26698,73.03841,"Paanchbatti circle,Jodhpur"
1630,Mandore road,1268865,Jodhpur,,26.31459,73.04224,"Mandore road,Jodhpur"
1631,Mandore,1268865,Jodhpur,,26.34149,73.04634,"Mandore,Jodhpur"
1632,Banar Road,1268865,Jodhpur,,26.30579,73.07936,"Banar Road,Jodhpur"
1633,Shikargarh,1268865,Jodhpur,,26.27457,73.0761,"Shikargarh,Jodhpur"
1634,Pratap Nagar,1268865,Jodhpur,,26.28373,72.99816,"Pratap Nagar,Jodhpur"
1635,Polo ground,1268865,Jodhpur,,26.23895,73.02431,"Polo ground,Jodhpur"
1636,Airport road,1268865,Jodhpur,,26.26476,73.03971,"Airport road,Jodhpur"
1637,Mehrangarh fort,1268865,Jodhpur,,26.23895,73.02431,"Mehrangarh fort,Jodhpur"
1638,Osian,1268865,Jodhpur,,26.72455,72.90471,"Osian,Jodhpur"
1541,Jawahar nagar,1269515,Jaipur,66,28.67949,77.20023,"Jawahar nagar,Jaipur"
1542,Kanota,1269515,Jaipur,66,26.86226,75.95576,"Kanota,Jaipur"
1543,Jamdoli,1269515,Jaipur,66,26.90942,75.88815,"Jamdoli,Jaipur"
1545,Gurjar Ki Thadi,1269515,Jaipur,67,26.87494,75.7684,"Gurjar Ki Thadi,Jaipur"
1546,Shyam Nagar,1269515,Jaipur,67,26.8886,75.76283,"Shyam Nagar,Jaipur"
1547,Vaishali Nagar,1269515,Jaipur,67,26.91158,75.74374,"Vaishali Nagar,Jaipur"
1548,Gandhi Path,1269515,Jaipur,67,26.90585,75.73335,"Gandhi Path,Jaipur"
1549,Sirsi Road,1269515,Jaipur,67,26.92261,75.68803,"Sirsi Road,Jaipur"
1550,New Sanganer Road,1269515,Jaipur,67,26.88477,75.76949,"New Sanganer Road,Jaipur"
1551,King's Road,1269515,Jaipur,67,26.88586,75.75132,"King's Road,Jaipur"
1553,Subhash Nagar,1269515,Jaipur,69,26.93607,75.79284,"Subhash Nagar,Jaipur"
1554,Vidhyadhar Nagar,1269515,Jaipur,69,26.95566,75.77903,"Vidhyadhar Nagar,Jaipur"
1555,VKI,1269515,Jaipur,69,26.99729,75.78549,"VKI,Jaipur"
1556,Rambagh Crossing,1269515,Jaipur,64,26.89494,75.80859,"Rambagh Crossing,Jaipur"
1557,Teen Moorti Crossing,1269515,Jaipur,64,28.59648,77.20325,"Teen Moorti Crossing,Jaipur"
1558,Narayan Singh Circle,1269515,Jaipur,64,26.89977,75.81291,"Narayan Singh Circle,Jaipur"
1559,Sahkar Marg,1269515,Jaipur,64,26.89109,75.79426,"Sahkar Marg,Jaipur"
1560,Airport Plaza,1269515,Jaipur,64,26.84252,75.79560,"Airport Plaza,Jaipur"
1561,Sitapura,1269515,Jaipur,64,26.77756,75.84542,"Sitapura,Jaipur"
1562,JLN Marg,1269515,Jaipur,64,26.84874,75.80543,"JLN Marg,Jaipur"
1563,Jawahar Circle,1269515,Jaipur,64,26.83811,75.79942,"Jawahar Circle,Jaipur"
1564,Joravar Singh Gate,1269515,Jaipur,65,26.93497,75.83343,"Joravar Singh Gate,Jaipur"
1566,Amer/Amber,1269515,Jaipur,65,26.9842,75.84655,"Amer/Amber,Jaipur"
1567,Kunda Mod,1269515,Jaipur,65,26.99566,75.87630,"Kunda Mod,Jaipur"
1568,Statue Circle,1269515,Jaipur,70,26.90771,75.80604,"Statue Circle,Jaipur"
1569,MI Road,1269515,Jaipur,70,26.91675,75.81366,"MI Road,Jaipur"
1570,Khasa Kothi Circle,1269515,Jaipur,70,26.92021,75.79427,"Khasa Kothi Circle,Jaipur"
1532,Koramangala,1277333,Bangalore,15,12.92792,77.62711,"Koramangala,Bangalore"
335,Bhayander (East),1275339,Mumbai,4,19.3056,72.85938,"Bhayander (East),Mumbai"
336,Bhayander (West),1275339,Mumbai,4,19.30178,72.85026,"Bhayander (West),Mumbai"
326,Vashi,1275339,Mumbai,53,19.07706,72.99899,"Vashi,Mumbai"
1425,Aamby Valley,1275339,Mumbai,55,19.07598,72.87766,"Aamby Valley,Mumbai"
1426,Karjat,1275339,Mumbai,55,18.82841,73.25913,"Karjat,Mumbai"
1427,Lonavala,1275339,Mumbai,55,18.74939,73.40808,"Lonavala,Mumbai"
1639,Agra Road,1269515,Jaipur,66,26.8952,75.86114,"Agra Road,Jaipur"
1640,Riddhi Siddhi Crossing,1269515,Jaipur,67,26.87367,75.77654,"Riddhi Siddhi Crossing,Jaipur"
1641,Queen's Road,1269515,Jaipur,67,26.90975,75.75297,"Queen's Road,Jaipur"
1642,Gopalbari,1269515,Jaipur,67,26.92049,75.78992,"Gopalbari,Jaipur"
1643,Station Road,1269515,Jaipur,69,26.92164,75.79687,"Station Road,Jaipur"
1644,Sikar Road,1269515,Jaipur,69,26.98015,75.77447,"Sikar Road,Jaipur"
1645,Kalwar Road,1269515,Jaipur,69,26.9485,75.71686,"Kalwar Road,Jaipur"
1646,Chomu,1269515,Jaipur,69,27.17011,75.7197,"Chomu,Jaipur"
1647,Tonk Road,1269515,Jaipur,64,26.83216,75.79411,"Tonk Road,Jaipur"
1648,Gopalpura Bypass,1269515,Jaipur,64,26.86974,75.78279,"Gopalpura Bypass,Jaipur"
1649,Beelwa,1269515,Jaipur,64,26.74667,75.85802,"Beelwa,Jaipur"
1650,Lal Bhadur Shastri Nagar,1269515,Jaipur,64,26.84908,75.80210,"Lal Bhadur Shastri Nagar,Jaipur"
1651,Mahaveer Nagar,1269515,Jaipur,64,26.85346,75.79093,"Mahaveer Nagar,Jaipur"
1652,Jal Mahal,1269515,Jaipur,65,26.95372,75.83755,"Jal Mahal,Jaipur"
1653,Delhi Bypass road,1269515,Jaipur,65,26.46358,74.62921,"Delhi Bypass road,Jaipur"
1654,Johari Bazaar,1269515,Jaipur,65,26.91891,75.82571,"Johari Bazaar,Jaipur"
1655,C Scheme,1269515,Jaipur,70,26.91329,75.80345,"C Scheme,Jaipur"
1656,Paanch Batti,1269515,Jaipur,70,26.91315,75.80676,"Paanch Batti,Jaipur"
1710,Gandhi Nagar,4,Bikaner,,28.03538,73.33771,"Gandhi Nagar,Bikaner"
1722,Sewashram,1253987,Udaipur,,24.58153,73.7204,"Sewashram,Udaipur"
1734,Fathepura,1253987,Udaipur,,24.61413,73.68558,"Fathepura,Udaipur"
1746,Jagdish chowk,1253987,Udaipur,,24.58012,73.68344,"Jagdish chowk,Udaipur"
1756,Ekling ji,1253987,Udaipur,,24.74088,73.72278,"Ekling ji,Udaipur"
1766,Britona,1,Goa,,15.52178,73.84632,"Britona,Goa"
1776,Colvale,1,Goa,,15.63193,73.82719,"Colvale,Goa"
187,Sanpada,1275339,Mumbai,53,19.06062,73.01396,"Sanpada,Mumbai"
1711,Rani Bazar,4,Bikaner,,28.00563,73.31891,"Rani Bazar,Bikaner"
1723,Eklingpura,1253987,Udaipur,,24.55247,73.74043,"Eklingpura,Udaipur"
1735,Bedla,1253987,Udaipur,,24.64694,73.69482,"Bedla,Udaipur"
1747,Chandpole,1253987,Udaipur,,24.58363,73.68261,"Chandpole,Udaipur"
1757,Jhalamand ,1268865,Jodhpur,,26.22845,73.04496,"Jhalamand ,Jodhpur"
1767,Bambolim,1,Goa,,15.46475,73.86249,"Bambolim,Goa"
672,Charni Road,1275339,Mumbai,2,18.9519,72.81874,"Charni Road,Mumbai"
674,Churchgate,1275339,Mumbai,2,18.93225,72.82644,"Churchgate,Mumbai"
675,Colaba,1275339,Mumbai,2,18.9067,72.81471,"Colaba,Mumbai"
677,Cuffe Parade,1275339,Mumbai,2,18.91268,72.82129,"Cuffe Parade,Mumbai"
683,Fort,1275339,Mumbai,2,18.93526,72.83715,"Fort,Mumbai"
684,Gamdevi,1275339,Mumbai,2,18.95892,72.81241,"Gamdevi,Mumbai"
685,Girgaum,1275339,Mumbai,2,18.95723,72.81967,"Girgaum,Mumbai"
686,Grant Road,1275339,Mumbai,2,18.963,72.81758,"Grant Road,Mumbai"
694,Lower Parel,1275339,Mumbai,2,18.99275,72.83107,"Lower Parel,Mumbai"
696,Mahalaxmi,1275339,Mumbai,2,18.97791,72.81902,"Mahalaxmi,Mumbai"
697,Malabar Hill,1275339,Mumbai,2,18.95427,72.80133,"Malabar Hill,Mumbai"
699,Marine Drive,1275339,Mumbai,2,18.94358,72.82287,"Marine Drive,Mumbai"
701,Marine Lines,1275339,Mumbai,2,18.94572,72.82376,"Marine Lines,Mumbai"
705,Matunga East,1275339,Mumbai,2,19.02688,72.85534,"Matunga East,Mumbai"
706,Matunga West,1275339,Mumbai,2,19.02821,72.84376,"Matunga West,Mumbai"
708,Mumbai Central,1275339,Mumbai,2,18.96903,72.82053,"Mumbai Central,Mumbai"
711,Nariman Point,1275339,Mumbai,2,18.92557,72.82422,"Nariman Point,Mumbai"
715,Parel,1275339,Mumbai,2,19.00216,72.84158,"Parel,Mumbai"
717,Prabhadevi,1275339,Mumbai,2,19.01585,72.828,"Prabhadevi,Mumbai"
724,Tardeo,1275339,Mumbai,2,18.96815,72.81224,"Tardeo,Mumbai"
728,Worli,1275339,Mumbai,2,18.9872,72.82905,"Worli,Mumbai"
689,Kalbadevi,1275339,Mumbai,2,18.94874,72.82888,"Kalbadevi,Mumbai"
679,Dadar (East),1275339,Mumbai,4,19.00991,72.84269,"Dadar (East),Mumbai"
680,Dadar (West),1275339,Mumbai,4,19.0236,72.83781,"Dadar (West),Mumbai"
1712,Jhalamand,4,Bikaner,,28.02294,73.31192,"Jhalamand,Bikaner"
1724,Madri,1253987,Udaipur,,24.25936,73.47695,"Madri,Udaipur"
1736,Badgaon,1253987,Udaipur,,24.63666,73.68011,"Badgaon,Udaipur"
1748, Ahmedabad highway,1253987,Udaipur,,51.50341,-0.12759," Ahmedabad highway,Udaipur"
1758,Cavelossim,1,Goa,,15.17912,73.95362,"Cavelossim,Goa"
1777,Neemrana,1269515,Jaipur,,27.97229,76.3893,"Neemrana,Jaipur"
1365,Dona paula,1,Goa,50,15.46081,73.80956,"Dona paula,Goa"
1366,Aguada,1,Goa,49,15.49468,73.76719,"Aguada,Goa"
863,Karol Bagh,1273294,Delhi,10,28.65278,77.19214,"Karol Bagh,Delhi"
855,Mehrauli,1273294,Delhi,9,28.52121,77.17898,"Mehrauli,Delhi"
852,Lajpat Nagar,1273294,Delhi,9,28.5677,77.24327,"Lajpat Nagar,Delhi"
854,Malviya Nagar,1273294,Delhi,9,26.85332,75.80960,"Malviya Nagar,Delhi"
857,Okhla,1273294,Delhi,9,28.56028,77.29133,"Okhla,Delhi"
1367,Anjuna,1,Goa,49,15.58093,73.74484,"Anjuna,Goa"
1368,Arambol,1,Goa,49,15.68713,73.72131,"Arambol,Goa"
862,Daryaganj,1273294,Delhi,7,28.64485,77.24038,"Daryaganj,Delhi"
1410,Laggere,1277333,Bangalore,16,13.00977,77.5254,"Laggere,Bangalore"
1402,Mysore Road,1277333,Bangalore,16,13.12117,77.60788,"Mysore Road,Bangalore"
1406,VijayNagar,1277333,Bangalore,16,12.96962,77.51523,"VijayNagar,Bangalore"
1403,NagarBhavi,1277333,Bangalore,16,12.95995,77.50828,"NagarBhavi,Bangalore"
1369,Arpora,1,Goa,49,15.57134,73.76838,"Arpora,Goa"
1370,Assagao,1,Goa,49,15.59406,73.76838,"Assagao,Goa"
1371,Baga,1,Goa,49,15.55705,73.75485,"Baga,Goa"
1401,Magadi Road,1277333,Bangalore,12,12.98681,77.47638,"Magadi Road,Bangalore"
1393,Raj Bhavan Road,1277333,Bangalore,15,12.983,77.55464,"Raj Bhavan Road,Bangalore"
1394,Jayanagar,1277333,Bangalore,15,12.92501,77.5938,"Jayanagar,Bangalore"
1395,JC Road,1277333,Bangalore,15,12.95945,77.58303,"JC Road,Bangalore"
1396,Yadavanahalli,1277333,Bangalore,15,12.78972,77.75236,"Yadavanahalli,Bangalore"
1398,Chamrajpet,1277333,Bangalore,15,12.95701,77.56344,"Chamrajpet,Bangalore"
1399,Girinagar,1277333,Bangalore,15,12.93863,77.54403,"Girinagar,Bangalore"
1400,Lalbagh,1277333,Bangalore,15,18.99154,72.8359,"Lalbagh,Bangalore"
1404,PadmanabhaNagar,1277333,Bangalore,15,12.91557,77.55677,"PadmanabhaNagar,Bangalore"
1155,Budhwar Peth,1259229,Pune,33,18.51588,73.85804,"Budhwar Peth,Pune"
1156,Ghorpade Peth,1259229,Pune,33,18.50195,73.86629,"Ghorpade Peth,Pune"
1158,Baner,1259229,Pune,33,18.55966,73.77994,"Baner,Pune"
1159,Katraj,1259229,Pune,33,18.45753,73.86775,"Katraj,Pune"
1160,Nana Peth,1259229,Pune,33,18.51443,73.86538,"Nana Peth,Pune"
1161,Solapur,1259229,Pune,33,17.89256,75.02461,"Solapur,Pune"
1162,Shukrawar Peth,1259229,Pune,33,18.50832,73.8567,"Shukrawar Peth,Pune"
1163,Wanowrie,1259229,Pune,33,18.48289,73.90168,"Wanowrie,Pune"
1157,Hadapsar,1259229,Pune,72,18.50892,73.92603,"Hadapsar,Pune"
1164,Bhosari,1259229,Pune,32,18.63853,73.84779,"Bhosari,Pune"
1165,Chinchwad,1259229,Pune,32,18.64084,73.7221,"Chinchwad,Pune"
1166,Hinjewadi,1259229,Pune,32,18.59706,73.71882,"Hinjewadi,Pune"
1167,Ganeshkhind,1259229,Pune,32,18.55959,73.81708,"Ganeshkhind,Pune"
1168,Kasarwadi,1259229,Pune,32,18.60609,73.82279,"Kasarwadi,Pune"
1713,Lallgarh Campus,4,Bikaner,,28.02294,73.31192,"Lallgarh Campus,Bikaner"
1725,Surajpole,1253987,Udaipur,,24.57951,73.69604,"Surajpole,Udaipur"
1737,Sisarma,1253987,Udaipur,,24.59529,73.66495,"Sisarma,Udaipur"
1749,Chungi naka,1253987,Udaipur,,27.73498,75.47115,"Chungi naka,Udaipur"
1759,Arossim,1,Goa,,15.33719,73.90365,"Arossim,Goa"
1769,Verem,1,Goa,,15.50625,73.80956,"Verem,Goa"
890,Austin Town,1277333,Bangalore,12,12.96164,77.61331,"Austin Town,Bangalore"
897,Avenue Road,1277333,Bangalore,12,12.96864,77.57904,"Avenue Road,Bangalore"
889,Basavanagudi,1277333,Bangalore,12,12.94212,77.57536,"Basavanagudi,Bangalore"
891,Chikpet,1277333,Bangalore,12,12.97092,77.57631,"Chikpet,Bangalore"
901,Church Street,1277333,Bangalore,12,12.9751,77.6047,"Church Street,Bangalore"
893,Commercial Street,1277333,Bangalore,12,12.9822,77.60834,"Commercial Street,Bangalore"
898,Cox Town,1277333,Bangalore,12,12.99547,77.62341,"Cox Town,Bangalore"
894,R.T Nagar,1277333,Bangalore,12,13.01957,77.59681,"R.T Nagar,Bangalore"
900,Richmond town,1277333,Bangalore,12,12.96338,77.60349,"Richmond town,Bangalore"
896,Shivajinagar,1277333,Bangalore,12,12.9868,77.6094,"Shivajinagar,Bangalore"
892,Vittal Mallya Road.,1277333,Bangalore,12,12.97113,77.59725,"Vittal Mallya Road.,Bangalore"
902,Bellandur,1277333,Bangalore,13,12.92603,77.67625,"Bellandur,Bangalore"
873,Model Town,1273294,Delhi,6,28.71587,77.19107,"Model Town,Delhi"
876,Shalimar Bagh,1273294,Delhi,6,28.71641,77.15459,"Shalimar Bagh,Delhi"
867,Azadpur,1273294,Delhi,6,28.71277,77.16723,"Azadpur,Delhi"
866,Ashok Vihar,1273294,Delhi,6,28.68846,77.17575,"Ashok Vihar,Delhi"
886,Manesar,1273294,Delhi,61,28.37546,76.90668,"Manesar,Delhi"
881,Greater Noida,1273294,Delhi,62,28.47439,77.50399,"Greater Noida,Delhi"
895,Adugodi,1277333,Bangalore,12,12.94216,77.6027,"Adugodi,Bangalore"
904,Brigade Road,1277333,Bangalore,13,12.97131,77.60699,"Brigade Road,Bangalore"
903,Brookefield,1277333,Bangalore,13,12.97123,77.71484,"Brookefield,Bangalore"
905,Domlur Layout,1277333,Bangalore,13,12.96099,77.63873,"Domlur Layout,Bangalore"
906,HRBR Layout,1277333,Bangalore,13,13.01914,77.64645,"HRBR Layout,Bangalore"
911,Indira Nagar,1277333,Bangalore,13,12.97189,77.64115,"Indira Nagar,Bangalore"
907,ITPL Road,1277333,Bangalore,13,12.99079,77.72207,"ITPL Road,Bangalore"
908,Kadugodi,1277333,Bangalore,13,12.99267,77.75322,"Kadugodi,Bangalore"
909,Old Airport Road,1277333,Bangalore,13,12.95463,77.68225,"Old Airport Road,Bangalore"
910,Whitefield,1277333,Bangalore,13,12.9698,77.74995,"Whitefield,Bangalore"
912,Banaswadi,1277333,Bangalore,14,13.01196,77.64713,"Banaswadi,Bangalore"
913,Bel Road,1277333,Bangalore,14,13.03024,77.57058,"Bel Road,Bangalore"
914,Frazer Town,1277333,Bangalore,14,12.99715,77.61426,"Frazer Town,Bangalore"
915,Hebbal,1277333,Bangalore,14,13.03464,77.58942,"Hebbal,Bangalore"
917,Hennur,1277333,Bangalore,14,13.04028,77.64502,"Hennur,Bangalore"
916,Hesaraghatta,1277333,Bangalore,14,13.134,77.4788,"Hesaraghatta,Bangalore"
919,Jalahalli,1277333,Bangalore,14,13.05277,77.5419,"Jalahalli,Bangalore"
918,Malleshwaram,1277333,Bangalore,14,13.00306,77.56429,"Malleshwaram,Bangalore"
920,Nandhini Layout,1277333,Bangalore,14,13.01599,77.53382,"Nandhini Layout,Bangalore"
921,ST. Thomas Town,1277333,Bangalore,14,13.01331,77.62154,"ST. Thomas Town,Bangalore"
922,Yelahanka,1277333,Bangalore,14,13.09445,77.58601,"Yelahanka,Bangalore"
923,Bannerghatta Road,1277333,Bangalore,15,12.88903,77.59933,"Bannerghatta Road,Bangalore"
924,BTM Layout,1277333,Bangalore,15,12.91658,77.61012,"BTM Layout,Bangalore"
925,Electronics City,1277333,Bangalore,15,12.83994,77.677,"Electronics City,Bangalore"
926,Hosur Road,1277333,Bangalore,15,12.90294,77.63153,"Hosur Road,Bangalore"
928,J.P Nagar,1277333,Bangalore,15,12.91049,77.58572,"J.P Nagar,Bangalore"
934,Konanakunte,1277333,Bangalore,15,12.8857,77.56655,"Konanakunte,Bangalore"
929,Langford Town,1277333,Bangalore,15,12.95699,77.60277,"Langford Town,Bangalore"
930,Magrath Road,1277333,Bangalore,15,12.97014,77.61085,"Magrath Road,Bangalore"
933,Mission Road,1277333,Bangalore,15,12.96249,77.59206,"Mission Road,Bangalore"
932,Museum Road,1277333,Bangalore,15,12.97225,77.60427,"Museum Road,Bangalore"
935,Raja Ram Mohan Roy Road,1277333,Bangalore,15,12.9716,77.59456,"Raja Ram Mohan Roy Road,Bangalore"
937,St.Marks Road,1277333,Bangalore,15,12.97233,77.60119,"St.Marks Road,Bangalore"
936,Vivek Nagar,1277333,Bangalore,15,12.95449,77.61907,"Vivek Nagar,Bangalore"
938,Wilson Road,1277333,Bangalore,15,51.50341,-0.12759,"Wilson Road,Bangalore"
927,HSR Layout,1277333,Bangalore,15,12.90814,77.64761,"HSR Layout,Bangalore"
1770,Taleigao,1,Goa,,15.48153,73.82197,"Taleigao,Goa"
1175,Kothrud,1259229,Pune,34,18.5074,73.80765,"Kothrud,Pune"
1176,Bavdhan,1259229,Pune,34,18.5156,73.78191,"Bavdhan,Pune"
1177,Deccan Gymkhana,1259229,Pune,34,18.51756,73.84166,"Deccan Gymkhana,Pune"
1178,Karve Nagar,1259229,Pune,34,18.48976,73.8203,"Karve Nagar,Pune"
1179,Navi Peth,1259229,Pune,34,18.50682,73.84044,"Navi Peth,Pune"
1180,Paud Road,1259229,Pune,34,18.50502,73.7655,"Paud Road,Pune"
1169,Lohegaon,1259229,Pune,32,18.59113,73.91882,"Lohegaon,Pune"
1170,Nagar Road,1259229,Pune,32,18.56289,73.93676,"Nagar Road,Pune"
1171,Pimpri,1259229,Pune,32,18.64084,73.7221,"Pimpri,Pune"
1172,Raviwar Peth,1259229,Pune,32,18.51745,73.86124,"Raviwar Peth,Pune"
1173,Wakad,1259229,Pune,32,18.59894,73.76527,"Wakad,Pune"
1174,Yerawada,1259229,Pune,32,18.55288,73.87964,"Yerawada,Pune"
1181,Agarkar Nagar,1259229,Pune,31,18.52808,73.87202,"Agarkar Nagar,Pune"
1182,Erandwane,1259229,Pune,31,18.50859,73.83172,"Erandwane,Pune"
1183,Kondhwa,1259229,Pune,31,18.47709,73.89069,"Kondhwa,Pune"
1714,Jaipur Bypass Road,4,Bikaner,,27.36927,75.58185,"Jaipur Bypass Road,Bikaner"
1726,Keshav nagar,1253987,Udaipur,,24.59275,73.71492,"Keshav nagar,Udaipur"
1738,Chetak,1253987,Udaipur,,51.50341,-0.12759,"Chetak,Udaipur"
1750,Lakhawali,1253987,Udaipur,,24.68155,73.69482,"Lakhawali,Udaipur"
1760,Colva,1,Goa,,15.21118,73.93951,"Colva,Goa"
1362,Margao,1,Goa,50,15.28322,73.98619,"Margao,Goa"
1363,Vasco-da-gama,1,Goa,50,15.38603,73.84404,"Vasco-da-gama,Goa"
1364,Panjim,1,Goa,50,15.49093,73.82785,"Panjim,Goa"
1372,Calangute,1,Goa,49,15.53112,73.7625,"Calangute,Goa"
1373,Candolim,1,Goa,49,15.51453,73.76838,"Candolim,Goa"
1374,Mapusa,1,Goa,49,15.60023,73.8125,"Mapusa,Goa"
1375,Morjim,1,Goa,49,15.63162,73.73896,"Morjim,Goa"
1376,Miramar,1,Goa,49,15.47654,73.81103,"Miramar,Goa"
1377,Tivim,1,Goa,49,15.61806,73.84383,"Tivim,Goa"
1378,Vagator,1,Goa,49,15.59886,73.75661,"Vagator,Goa"
1317,Raja Park,1269515,Jaipur,66,26.89475,75.83012,"Raja Park,Jaipur"
1322,Tilak Nagar,1269515,Jaipur,66,26.89452,75.8213,"Tilak Nagar,Jaipur"
1325,Civil Lines,1269515,Jaipur,67,26.90593,75.78444,"Civil Lines,Jaipur"
1330,Sodala,1269515,Jaipur,67,26.90647,75.7728,"Sodala,Jaipur"
1327,Mansarovar,1269515,Jaipur,67,26.84968,75.76919,"Mansarovar,Jaipur"
1335,Bhankrota,1269515,Jaipur,67,26.87146,75.69587,"Bhankrota,Jaipur"
1334,Bani Park,1269515,Jaipur,69,26.93070,75.79361,"Bani Park,Jaipur"
1340,Shastri Nagar,1269515,Jaipur,69,26.95031,75.80098,"Shastri Nagar,Jaipur"
1319,Samode,1269515,Jaipur,69,27.205,75.8055,"Samode,Jaipur"
1344,Durgapura,1269515,Jaipur,64,26.8518,75.78622,"Durgapura,Jaipur"
1326,Jagatpura,1269515,Jaipur,64,26.81767,75.86172,"Jagatpura,Jaipur"
1347,Kukas,1269515,Jaipur,65,27.03059,75.89003,"Kukas,Jaipur"
1324,Bais Godam,1269515,Jaipur,70,26.89714,75.7864,"Bais Godam,Jaipur"
1348,Khar (East),1275339,Mumbai,4,19.07166,72.84399,"Khar (East),Mumbai"
418,Bhandup (West),1275339,Mumbai,3,19.15099,72.93153,"Bhandup (West),Mumbai"
424,Ghatkopar (East),1275339,Mumbai,3,19.07964,72.90701,"Ghatkopar (East),Mumbai"
425,Ghatkopar (West),1275339,Mumbai,3,19.09081,72.90767,"Ghatkopar (West),Mumbai"
435,Kurla (East),1275339,Mumbai,3,19.06205,72.88344,"Kurla (East),Mumbai"
487,Kurla (West),1275339,Mumbai,3,19.07075,72.87813,"Kurla (West),Mumbai"
443,Mulund (East),1275339,Mumbai,3,19.15651,72.96377,"Mulund (East),Mumbai"
444,Mulund (West),1275339,Mumbai,3,19.17255,72.94254,"Mulund (West),Mumbai"
456,Powai,1275339,Mumbai,3,19.11968,72.90508,"Powai,Mumbai"
468,Sion (East),1275339,Mumbai,3,19.03515,72.86632,"Sion (East),Mumbai"
469,Sion (West),1275339,Mumbai,3,19.03949,72.85971,"Sion (West),Mumbai"
484,Vikhroli (East),1275339,Mumbai,3,19.09118,72.92086,"Vikhroli (East),Mumbai"
485,Vikhroli (West),1275339,Mumbai,3,19.10677,72.92254,"Vikhroli (West),Mumbai"
9,Andheri (East),1275339,Mumbai,4,19.11549,72.8727,"Andheri (East),Mumbai"
10,Andheri (West),1275339,Mumbai,4,19.13633,72.82766,"Andheri (West),Mumbai"
22,Borivali (East),1275339,Mumbai,4,19.22406,72.86665,"Borivali (East),Mumbai"
23,Borivali (West),1275339,Mumbai,4,19.24616,72.85091,"Borivali (West),Mumbai"
30,Dahisar (East),1275339,Mumbai,4,19.25393,72.86725,"Dahisar (East),Mumbai"
31,Dahisar (West),1275339,Mumbai,4,19.25644,72.85463,"Dahisar (West),Mumbai"
44,Goregaon (East),1275339,Mumbai,4,19.15515,72.86786,"Goregaon (East),Mumbai"
45,Goregaon (West),1275339,Mumbai,4,19.16293,72.83924,"Goregaon (West),Mumbai"
60,Jogeshwari (East),1275339,Mumbai,4,19.13703,72.85497,"Jogeshwari (East),Mumbai"
61,Jogeshwari (West),1275339,Mumbai,4,19.14051,72.84216,"Jogeshwari (West),Mumbai"
64,Kandivali (East),1275339,Mumbai,4,19.21145,72.87372,"Kandivali (East),Mumbai"
65,Kandivali (West),1275339,Mumbai,4,19.19982,72.84259,"Kandivali (West),Mumbai"
84,Malad (East),1275339,Mumbai,4,19.18087,72.85746,"Malad (East),Mumbai"
85,Malad (West),1275339,Mumbai,4,19.18276,72.84015,"Malad (West),Mumbai"
363,Mira Bhayandar,1275339,Mumbai,4,19.29523,72.85439,"Mira Bhayandar,Mumbai"
365,Mira Road East,1275339,Mumbai,4,19.28714,72.86884,"Mira Road East,Mumbai"
378,Palghar,1275339,Mumbai,4,19.07598,72.87766,"Palghar,Mumbai"
401,Vasai East,1275339,Mumbai,4,19.39193,72.83973,"Vasai East,Mumbai"
403,Vasai West,1275339,Mumbai,4,19.36664,72.8161,"Vasai West,Mumbai"
407,Virar East,1275339,Mumbai,4,19.46666,72.81148,"Virar East,Mumbai"
408,Virar West,1275339,Mumbai,4,19.45882,72.8113,"Virar West,Mumbai"
159,Belapur,1275339,Mumbai,53,19.01969,73.02644,"Belapur,Mumbai"
162,Ghansoli,1275339,Mumbai,53,19.12536,72.9992,"Ghansoli,Mumbai"
167,Kamothe,1275339,Mumbai,53,19.01662,73.0966,"Kamothe,Mumbai"
176,Mahape,1275339,Mumbai,53,19.11829,73.02759,"Mahape,Mumbai"
178,Nerul,1275339,Mumbai,53,19.03558,73.02282,"Nerul,Mumbai"
184,Rabale,1275339,Mumbai,53,19.14633,73.00806,"Rabale,Mumbai"
189,Seawoods,1275339,Mumbai,53,19.00942,73.01987,"Seawoods,Mumbai"
498,Badlapur (East),1275339,Mumbai,54,19.2393,73.14107,"Badlapur (East),Mumbai"
1715,Sam Road,1269507,Jaisalmer,,27.40136,70.49429,"Sam Road,Jaisalmer"
1727,Ashok nagar,1253987,Udaipur,,24.58863,73.70218,"Ashok nagar,Udaipur"
1739,Rampura,1253987,Udaipur,,24.76196,74.08582,"Rampura,Udaipur"
1751,Iswal,1253987,Udaipur,,24.73007,73.62566,"Iswal,Udaipur"
1761,Betalbatim,1,Goa,,15.29672,73.92358,"Betalbatim,Goa"
1771,Uccasaim,1,Goa,,15.58123,73.84338,"Uccasaim,Goa"
1386,Fatehpura,1253987,Udaipur,51,24.61413,73.68558,"Fatehpura,Udaipur"
1716,Hiren mangri,1253987,Udaipur,,24.54651,73.69841,"Hiren mangri,Udaipur"
1728,Subash nagar,1253987,Udaipur,,24.58257,73.7191,"Subash nagar,Udaipur"
1740,Ambavgarh,1253987,Udaipur,,51.50341,-0.12759,"Ambavgarh,Udaipur"
1752,Panerio ki madari,1253987,Udaipur,,51.50341,-0.12759,"Panerio ki madari,Udaipur"
1762,Varca,1,Goa,,15.23237,73.94311,"Varca,Goa"
1772,Sangolda,1,Goa,,15.5351,73.81544,"Sangolda,Goa"
821,Civil Lines,1273294,Delhi,6,28.68143,77.22269,"Civil Lines,Delhi"
823,Kamla Nagar,1273294,Delhi,6,28.68091,77.20459,"Kamla Nagar,Delhi"
839,Janakpuri,1273294,Delhi,10,28.6219,77.08784,"Janakpuri,Delhi"
843,Rajouri Garden,1273294,Delhi,10,28.64153,77.12092,"Rajouri Garden,Delhi"
847,Defence Colony,1273294,Delhi,9,28.57263,77.23251,"Defence Colony,Delhi"
849,Green Park,1273294,Delhi,9,28.55845,77.20294,"Green Park,Delhi"
831,INA Colony,1273294,Delhi,9,28.57822,77.21262,"INA Colony,Delhi"
833,Khan Market,1273294,Delhi,9,28.60009,77.22704,"Khan Market,Delhi"
829,Connaught Place,1273294,Delhi,7,28.63145,77.21667,"Connaught Place,Delhi"
828,Chanakyapuri,1273294,Delhi,7,28.59385,77.18874,"Chanakyapuri,Delhi"
824,Paharganj,1273294,Delhi,7,28.64804,77.21299,"Paharganj,Delhi"
1304,Bapu Nagar,1269515,Jaipur,64,26.88983,75.80836,"Bapu Nagar,Jaipur"
1316,Malviya Nagar,1269515,Jaipur,64,26.85487,75.8243,"Malviya Nagar,Jaipur"
1315,Lal Kothi,1269515,Jaipur,64,26.89231,75.79848,"Lal Kothi,Jaipur"
734,Byculla,1275339,Mumbai,2,18.97184,72.8436,"Byculla,Mumbai"
738,Chembur (East),1275339,Mumbai,3,19.04399,72.91025,"Chembur (East),Mumbai"
739,Chembur (West),1275339,Mumbai,3,19.04715,72.86616,"Chembur (West),Mumbai"
818,Panvel,1275339,Mumbai,53,18.9894,73.11752,"Panvel,Mumbai"
506,Dombivili (East),1275339,Mumbai,54,19.20572,73.09553,"Dombivili (East),Mumbai"
507,Dombivili (West),1275339,Mumbai,54,19.21576,73.07299,"Dombivili (West),Mumbai"
517,Kalyan (East),1275339,Mumbai,54,19.22849,73.12297,"Kalyan (East),Mumbai"
518,Kalyan (West),1275339,Mumbai,54,19.24414,73.12173,"Kalyan (West),Mumbai"
647,Thane (East),1275339,Mumbai,54,19.17804,72.97854,"Thane (East),Mumbai"
817,Thane (West),1275339,Mumbai,54,19.22666,72.98384,"Thane (West),Mumbai"
1717,Kaladwas,1253987,Udaipur,,24.56019,73.75808,"Kaladwas,Udaipur"
1729,College road,1253987,Udaipur,,24.57953,73.70328,"College road,Udaipur"
1741,Mallatalai,1253987,Udaipur,,24.58856,73.66245,"Mallatalai,Udaipur"
1753,Ubeshwar road,1253987,Udaipur,,51.50341,-0.12759,"Ubeshwar road,Udaipur"
1763,Verna,1,Goa,,15.35987,73.94186,"Verna,Goa"
1773,Sinquerim,1,Goa,,51.50341,-0.12759,"Sinquerim,Goa"
1408,Basaveshwaranagar,1277333,Bangalore,16,12.96389,77.538286,"Basaveshwaranagar,Bangalore"
1409,Kamakshipalya,1277333,Bangalore,16,12.98868,77.52706,"Kamakshipalya,Bangalore"
1407,Rajajinagar,1277333,Bangalore,16,12.99006,77.55249,"Rajajinagar,Bangalore"
792,Mahim (West),1275339,Mumbai,2,19.03201,72.8401,"Mahim (West),Mumbai"
755,Sewri,1275339,Mumbai,3,18.99108,72.83409,"Sewri,Mumbai"
766,Wadala West,1275339,Mumbai,3,19.01641,72.85526,"Wadala West,Mumbai"
772,Bandra (East),1275339,Mumbai,4,19.06053,72.84935,"Bandra (East),Mumbai"
773,Bandra (West),1275339,Mumbai,4,19.06069,72.83625,"Bandra (West),Mumbai"
781,Juhu,1275339,Mumbai,4,19.09882,72.83207,"Juhu,Mumbai"
787,Khar West,1275339,Mumbai,4,19.07169,72.83413,"Khar West,Mumbai"
802,Santacruz (East),1275339,Mumbai,4,19.07937,72.85626,"Santacruz (East),Mumbai"
803,Santacruz (West),1275339,Mumbai,4,19.08151,72.83768,"Santacruz (West),Mumbai"
810,Vile Parle (East),1275339,Mumbai,4,19.09638,72.8564,"Vile Parle (East),Mumbai"
811,Vile Parle (West),1275339,Mumbai,4,19.1103,72.84097,"Vile Parle (West),Mumbai"
1718,Bhuwana,1253987,Udaipur,,51.50341,-0.12759,"Bhuwana,Udaipur"
1730,University road,1253987,Udaipur,,24.58997,73.71744,"University road,Udaipur"
1742,Rani road,1253987,Udaipur,,24.59529,73.66495,"Rani road,Udaipur"
1754,Nathudwara,1253987,Udaipur,,24.92914,73.82132,"Nathudwara,Udaipur"
1764,Nuvem,1,Goa,,15.31531,73.95362,"Nuvem,Goa"
1774,Parra,1,Goa,,15.57573,73.78897,"Parra,Goa"
1184,Akurdi,1259229,Pune,31,18.65048,73.77858,"Akurdi,Pune"
1185,Koregaon Park,1259229,Pune,31,18.53621,73.89398,"Koregaon Park,Pune"
1186,Narayan Peth,1259229,Pune,31,18.51547,73.85007,"Narayan Peth,Pune"
1187,Nigdi,1259229,Pune,31,18.65713,73.76591,"Nigdi,Pune"
1188,Shivaji Nagar,1259229,Pune,31,18.53082,73.84747,"Shivaji Nagar,Pune"
1189,Somwar Peth,1259229,Pune,31,18.5225,73.86676,"Somwar Peth,Pune"
1190,Swargate,1259229,Pune,31,18.50183,73.86359,"Swargate,Pune"
1719,Shobhagpura,1253987,Udaipur,,24.60567,73.70932,"Shobhagpura,Udaipur"
1731,Inside surajpole,1253987,Udaipur,,24.57951,73.69604,"Inside surajpole,Udaipur"
1743,Badi,1253987,Udaipur,,24.61731,73.62271,"Badi,Udaipur"
1755,Delwara,1253987,Udaipur,,24.77521,73.74632,"Delwara,Udaipur"
1765,Utorda,1,Goa,,15.31623,73.90806,"Utorda,Goa"
1775,Merces,1,Goa,,15.48245,73.8522,"Merces,Goa"